{"results": [{"fsq_id": "4fda2fc2e4b02b4ce2b26007", "categories": [{"id": 13034, "name": "Caf\u00e9", "icon": {"prefix": "https://ss3.4sqi.net/img/categories_v2/food/cafe_", "suffix": ".png"}}, {"id": 13035, "name": "Coffee Shop", "icon": {"prefix": "https://ss3.4sqi.net/img/categories_v2/food/coffeeshop_", "suffix": ".png"}}, {"id": 13065, "name": "Restaurant", "icon": {"prefix": "https://ss3.4sqi.net/img/categories_v2/food/default_", "suffix": ".png"}}], "chains": [], "distance": 1530, "geocodes": {"main": {"latitude": 41.38264, "longitude": 2.175303}, "roof": {"latitude": 41.38264, "longitude": 2.175303}}, "link": "/v3/places/4fda2fc2e4b02b4ce2b26007", "location": {"address": "Carrer de l'Arc de Sant Ramon del Call, 11", "admin_region": "Catalu\u00f1a", "country": "ES", "cross_street": "", "formatted_address": "Carrer de l'Arc de Sant Ramon del Call, 11, 08002 Barcelona Catalonia", "locality": "Barcelona", "postcode": "08002", "region": "Catalonia"}, "name": "Satan's Coffee Corner", "related_places": {}, "timezone": "Europe/Madrid"}, {"fsq_id": "52fafeb4498e411285ad33be", "categories": [{"id": 13003, "name": "Bar", "icon": {"prefix": "https://ss3.4sqi.net/img/categories_v2/nightlife/pub_", "suffix": ".png"}}, {"id": 13034, "name": "Caf\u00e9", "icon": {"prefix": "https://ss3.4sqi.net/img/categories_v2/food/cafe_", "suffix": ".png"}}, {"id": 13035, "name": "Coffee Shop", "icon": {"prefix": "https://ss3.4sqi.net/img/categories_v2/food/coffeeshop_", "suffix": ".png"}}], "chains": [], "distance": 1513, "geocodes": {"main": {"latitude": 41.388989, "longitude": 2.177167}, "roof": {"latitude": 41.388989, "longitude": 2.177167}}, "link": "/v3/places/52fafeb4498e411285ad33be", "location": {"address": "Pasatge Sert, 12", "admin_region": "Catalu\u00f1a", "country": "ES", "cross_street": "C. de Trafalgar", "formatted_address": "Pasatge Sert, 12 (C. de Trafalgar), 08003 Barcelona Catalonia", "locality": "Barcelona", "postcode": "08003", "region": "Catalonia"}, "name": "N\u00f8mad Coffee Lab & Shop", "related_places": {"children": []}, "timezone": "Europe/Madrid"}, {"fsq_id": "4b89528ef964a520852b32e3", "categories": [{"id": 13035, "name": "Coffee Shop", "icon": {"prefix": "https://ss3.4sqi.net/img/categories_v2/food/coffeeshop_", "suffix": ".png"}}, {"id": 13036, "name": "Tea Room", "icon": {"prefix": "https://ss3.4sqi.net/img/categories_v2/food/tearoom_", "suffix": ".png"}}, {"id": 13039, "name": "Deli", "icon": {"prefix": "https://ss3.4sqi.net/img/categories_v2/food/deli_", "suffix": ".png"}}], "chains": [], "distance": 1918, "geocodes": {"main": {"latitude": 41.383541, "longitude": 2.180957}, "roof": {"latitude": 41.383541, "longitude": 2.180957}}, "link": "/v3/places/4b89528ef964a520852b32e3", "location": {"address": "Argenteria, 64", "admin_region": "Catalu\u00f1a", "country": "ES", "formatted_address": "Argenteria, 64, 08003 Barcelona Catalonia", "locality": "Barcelona", "postcode": "08003", "region": "Catalonia"}, "name": "Caf\u00e9s el Magn\u00edfico", "related_places": {}, "timezone": "Europe/Madrid"}, {"fsq_id": "5698d01a498e9b5bf6bad803", "categories": [{"id": 13003, "name": "Bar", "icon": {"prefix": "https://ss3.4sqi.net/img/categories_v2/nightlife/pub_", "suffix": ".png"}}, {"id": 13035, "name": "Coffee Shop", "icon": {"prefix": "https://ss3.4sqi.net/img/categories_v2/food/coffeeshop_", "suffix": ".png"}}, {"id": 13065, "name": "Restaurant", "icon": {"prefix": "https://ss3.4sqi.net/img/categories_v2/food/default_", "suffix": ".png"}}], "chains": [], "distance": 1376, "geocodes": {"main": {"latitude": 41.393575, "longitude": 2.174295}, "roof": {"latitude": 41.393575, "longitude": 2.174295}}, "link": "/v3/places/5698d01a498e9b5bf6bad803", "location": {"address": "Gran V\u00eda de Les Corts Catalanes, 700", "admin_region": "Catalu\u00f1a", "country": "ES", "cross_street": "", "formatted_address": "Gran V\u00eda de Les Corts Catalanes, 700, 08010 Barcelona Catalonia", "locality": "Barcelona", "postcode": "08010", "region": "Catalonia"}, "name": "Satan's Coffee", "related_places": {"parent": {"fsq_id": "569b92b5498e7d195229c6de", "name": "Hotel Casa Bonay"}}, "timezone": "Europe/Madrid"}, {"fsq_id": "57ff4bde38fa1e8f0810a46d", "categories": [{"id": 13035, "name": "Coffee Shop", "icon": {"prefix": "https://ss3.4sqi.net/img/categories_v2/food/coffeeshop_", "suffix": ".png"}}, {"id": 13065, "name": "Restaurant", "icon": {"prefix": "https://ss3.4sqi.net/img/categories_v2/food/default_", "suffix": ".png"}}], "chains": [], "distance": 189, "geocodes": {"main": {"latitude": 41.387825, "longitude": 2.157221}, "roof": {"latitude": 41.387825, "longitude": 2.157221}}, "link": "/v3/places/57ff4bde38fa1e8f0810a46d", "location": {"address": "Carrer de Val\u00e8ncia, 190", "admin_region": "Catalu\u00f1a", "country": "ES", "cross_street": "C. de Val\u00e8ncia", "formatted_address": "Carrer de Val\u00e8ncia, 190 (C. de Val\u00e8ncia), 08011 Barcelona Catalonia", "locality": "Barcelona", "postcode": "08011", "region": "Catalonia"}, "name": "Roast Club", "related_places": {}, "timezone": "Europe/Madrid"}, {"fsq_id": "5753f3e3498e1f2cea0834f8", "categories": [{"id": 13003, "name": "Bar", "icon": {"prefix": "https://ss3.4sqi.net/img/categories_v2/nightlife/pub_", "suffix": ".png"}}, {"id": 13035, "name": "Coffee Shop", "icon": {"prefix": "https://ss3.4sqi.net/img/categories_v2/food/coffeeshop_", "suffix": ".png"}}, {"id": 13065, "name": "Restaurant", "icon": {"prefix": "https://ss3.4sqi.net/img/categories_v2/food/default_", "suffix": ".png"}}], "chains": [], "distance": 1937, "geocodes": {"main": {"latitude": 41.388351, "longitude": 2.135953}, "roof": {"latitude": 41.388351, "longitude": 2.135953}}, "link": "/v3/places/5753f3e3498e1f2cea0834f8", "location": {"address": "Carrer D\u00e9u I Mata, 62 Bajo", "admin_region": "Catalu\u00f1a", "country": "ES", "cross_street": "C. de Deu i Mata", "formatted_address": "Carrer D\u00e9u I Mata, 62 Bajo (C. de Deu i Mata), 08029 Barcelona Catalonia", "locality": "Barcelona", "postcode": "08029", "region": "Catalonia"}, "name": "Hidden Caf\u00e9 Barcelona", "related_places": {}, "timezone": "Europe/Madrid"}, {"fsq_id": "562ddf43498ee3bd9ed1c999", "categories": [{"id": 13034, "name": "Caf\u00e9", "icon": {"prefix": "https://ss3.4sqi.net/img/categories_v2/food/cafe_", "suffix": ".png"}}, {"id": 13035, "name": "Coffee Shop", "icon": {"prefix": "https://ss3.4sqi.net/img/categories_v2/food/coffeeshop_", "suffix": ".png"}}, {"id": 13065, "name": "Restaurant", "icon": {"prefix": "https://ss3.4sqi.net/img/categories_v2/food/default_", "suffix": ".png"}}], "chains": [], "distance": 1411, "geocodes": {"main": {"latitude": 41.400981, "longitude": 2.159596}, "roof": {"latitude": 41.400981, "longitude": 2.159596}}, "link": "/v3/places/562ddf43498ee3bd9ed1c999", "location": {"address": "Siracusa, 13", "admin_region": "Catalu\u00f1a", "country": "ES", "formatted_address": "Siracusa, 13, 08012 Barcelona Catalonia", "locality": "Barcelona", "postcode": "08012", "region": "Catalonia"}, "name": "Syra Coffee", "related_places": {}, "timezone": "Europe/Madrid"}, {"fsq_id": "58a196a45cab2f7fd67c7384", "categories": [{"id": 13034, "name": "Caf\u00e9", "icon": {"prefix": "https://ss3.4sqi.net/img/categories_v2/food/cafe_", "suffix": ".png"}}, {"id": 13035, "name": "Coffee Shop", "icon": {"prefix": "https://ss3.4sqi.net/img/categories_v2/food/coffeeshop_", "suffix": ".png"}}], "chains": [], "distance": 911, "geocodes": {"main": {"latitude": 41.384525, "longitude": 2.168502}, "roof": {"latitude": 41.384525, "longitude": 2.168502}}, "link": "/v3/places/58a196a45cab2f7fd67c7384", "location": {"address": "Calle de Les Ramelleres, 16", "admin_region": "Catalu\u00f1a", "country": "ES", "cross_street": "", "formatted_address": "Calle de Les Ramelleres, 16, 08001 Barcelona Catalonia", "locality": "Barcelona", "postcode": "08001", "region": "Catalonia"}, "name": "Dalston Coffee", "related_places": {}, "timezone": "Europe/Madrid"}, {"fsq_id": "550a913c498ebde0f6d594b3", "categories": [{"id": 13034, "name": "Caf\u00e9", "icon": {"prefix": "https://ss3.4sqi.net/img/categories_v2/food/cafe_", "suffix": ".png"}}, {"id": 13035, "name": "Coffee Shop", "icon": {"prefix": "https://ss3.4sqi.net/img/categories_v2/food/coffeeshop_", "suffix": ".png"}}, {"id": 13377, "name": "Vegan and Vegetarian Restaurant", "icon": {"prefix": "https://ss3.4sqi.net/img/categories_v2/food/vegetarian_", "suffix": ".png"}}], "chains": [], "distance": 1958, "geocodes": {"main": {"latitude": 41.378049, "longitude": 2.177796}, "roof": {"latitude": 41.378049, "longitude": 2.177796}}, "link": "/v3/places/550a913c498ebde0f6d594b3", "location": {"address": "Passatge de la Pau, 11", "admin_region": "Catalu\u00f1a", "country": "ES", "cross_street": "", "formatted_address": "Passatge de la Pau, 11, 08002 Barcelona Catalonia", "locality": "Barcelona", "postcode": "08002", "region": "Catalonia"}, "name": "Federal", "related_places": {}, "timezone": "Europe/Madrid"}, {"fsq_id": "4bae66fdf964a52087ad3be3", "categories": [{"id": 13003, "name": "Bar", "icon": {"prefix": "https://ss3.4sqi.net/img/categories_v2/nightlife/pub_", "suffix": ".png"}}, {"id": 13034, "name": "Caf\u00e9", "icon": {"prefix": "https://ss3.4sqi.net/img/categories_v2/food/cafe_", "suffix": ".png"}}, {"id": 13065, "name": "Restaurant", "icon": {"prefix": "https://ss3.4sqi.net/img/categories_v2/food/default_", "suffix": ".png"}}], "chains": [], "distance": 340, "geocodes": {"main": {"latitude": 41.387464, "longitude": 2.162686}, "roof": {"latitude": 41.387464, "longitude": 2.162686}}, "link": "/v3/places/4bae66fdf964a52087ad3be3", "location": {"address": "Enric Granados, 3", "admin_region": "Catalu\u00f1a", "country": "ES", "cross_street": "C. de la Diputaci\u00f3", "formatted_address": "Enric Granados, 3 (C. de la Diputaci\u00f3), 08007 Barcelona Catalonia", "locality": "Barcelona", "postcode": "08007", "region": "Catalonia"}, "name": "Cosmo", "related_places": {}, "timezone": "Europe/Madrid"}], "context": {"geo_bounds": {"circle": {"center": {"latitude": 41.38879, "longitude": 2.15899}, "radius": 8445}}}}