{"results": [{"fsq_id": "4d0e497a7d28721e9070fd20", "categories": [{"id": 13145, "name": "Fast Food Restaurant", "icon": {"prefix": "https://ss3.4sqi.net/img/categories_v2/food/fastfood_", "suffix": ".png"}}], "chains": [], "distance": 7172, "geocodes": {"main": {"latitude": 35.851613, "longitude": 14.494035}}, "link": "/v3/places/4d0e497a7d28721e9070fd20", "location": {"address": "Aviation St.", "country": "MT", "cross_street": "MLA Airport", "formatted_address": "Aviation St. (MLA Airport), Kirkop", "locality": "Kirkop", "region": "Kirkop"}, "name": "McDonald's", "related_places": {}, "timezone": "Europe/Malta"}, {"fsq_id": "533ef5c1498e1eb6bc9bef2b", "categories": [{"id": 13145, "name": "Fast Food Restaurant", "icon": {"prefix": "https://ss3.4sqi.net/img/categories_v2/food/fastfood_", "suffix": ".png"}}], "chains": [], "distance": 3759, "geocodes": {"main": {"latitude": 35.916992, "longitude": 14.455188}}, "link": "/v3/places/533ef5c1498e1eb6bc9bef2b", "location": {"country": "MT", "cross_street": "", "formatted_address": ""}, "name": "McDonald's", "related_places": {}, "timezone": "Europe/Malta"}, {"fsq_id": "5352ac34498ed4c1fd3f1785", "categories": [{"id": 13145, "name": "Fast Food Restaurant", "icon": {"prefix": "https://ss3.4sqi.net/img/categories_v2/food/fastfood_", "suffix": ".png"}}], "chains": [], "distance": 1837, "geocodes": {"main": {"latitude": 35.906162, "longitude": 14.42568}}, "link": "/v3/places/5352ac34498ed4c1fd3f1785", "location": {"address": "Naxxar Road", "country": "MT", "cross_street": "", "formatted_address": "Naxxar Road, Gharghur", "locality": "Gharghur"}, "name": "McDonald's", "related_places": {}, "timezone": "Europe/Malta"}, {"fsq_id": "51a14ae7498ec461cfafa1b4", "categories": [{"id": 13145, "name": "Fast Food Restaurant", "icon": {"prefix": "https://ss3.4sqi.net/img/categories_v2/food/fastfood_", "suffix": ".png"}}], "chains": [], "distance": 7169, "geocodes": {"main": {"latitude": 35.90869, "longitude": 14.50623}}, "link": "/v3/places/51a14ae7498ec461cfafa1b4", "location": {"address": "The Strand", "country": "MT", "formatted_address": "The Strand, Sliema", "locality": "Sliema"}, "name": "McDonald's", "related_places": {}, "timezone": "Europe/Malta"}, {"fsq_id": "4bbf093e82a2ef3b2d1e2cd2", "categories": [{"id": 13145, "name": "Fast Food Restaurant", "icon": {"prefix": "https://ss3.4sqi.net/img/categories_v2/food/fastfood_", "suffix": ".png"}}], "chains": [], "distance": 3071, "geocodes": {"main": {"latitude": 35.896469, "longitude": 14.463171}}, "link": "/v3/places/4bbf093e82a2ef3b2d1e2cd2", "location": {"address": "Valley Rd", "country": "MT", "cross_street": "", "formatted_address": "Valley Rd, Birkirkara", "locality": "Birkirkara", "region": "Birkirkara"}, "name": "McDonald's", "related_places": {}, "timezone": "Europe/Malta"}], "context": {"geo_bounds": {"circle": {"center": {"latitude": 35.89, "longitude": 14.43}, "radius": 25000}}}}