[{"name":"Toma Caf\u00e9","location":{"address":"Calle la Palma, 49","admin_region":"Comunidad de Madrid","country":"ES","formatted_address":"Calle la Palma, 49, 28004 Madrid Madrid","locality":"Madrid","postcode":"28004","region":"Madrid"}},{"name":"HanSo Caf\u00e9","location":{"address":"Calle del Pez, 20","admin_region":"Comunidad de Madrid","country":"ES","cross_street":"","formatted_address":"Calle del Pez, 20, 28004 Madrid Madrid","locality":"Madrid","postcode":"28004","region":"Madrid"}},{"name":"Hola Coffee","location":{"address":"Calle Doctor Fourquet, 33","admin_region":"Comunidad de Madrid","country":"ES","cross_street":"","formatted_address":"Calle Doctor Fourquet, 33, 28012 Madrid Madrid","locality":"Madrid","postcode":"28012","region":"Madrid"}},{"name":"Ruda Caf\u00e9","location":{"address":"Calle Ruda, 11","admin_region":"Comunidad de Madrid","country":"ES","formatted_address":"Calle Ruda, 11, 28005 Madrid Madrid","locality":"Madrid","postcode":"28005","region":"Madrid"}},{"name":"Caf\u00e9 de la Luz","location":{"address":"Calle Puebla, 8","admin_region":"Comunidad de Madrid","country":"ES","cross_street":"Calle Del Barco","formatted_address":"Calle Puebla, 8 (Calle Del Barco), 28004 Madrid Madrid","locality":"Madrid","postcode":"28004","region":"Madrid"}}]